[
  {
    "name": "BAM",
    "latitude": "48.88269",
    "longitude": "2.30483",
    "address": "48 Boulevard des Batignolles, 75017 Paris",
    "placeCategoryName": "Entreprise"
  },
  {
    "name": "Midi Thai",
    "latitude": "48.88297",
    "longitude": "2.31620",
    "address": "99 Rue des Dames, 75017 Paris",
    "placeCategoryName": "Restaurant"
  },
  {
    "name": "Day by day",
    "latitude": "43.70729",
    "longitude": "7.26303",
    "address": "3 Rue Vernier, 06000 Nice, Frankreich",
    "placeCategoryName": "Restaurant"
  },
  {
    "name": "Tendance Bio",
    "latitude": "47.61682",
    "longitude": "-0.46799",
    "address": "34 Rue d'Anjou, 49125 Tiercé, France",
    "placeCategoryName": "Restaurant"
  },
  {
    "name": "Poisy",
    "latitude": "45.92188",
    "longitude": "6.06266",
    "address": "74330 Poisy, France",
    "placeCategoryName": "Bar"
  },
  {
    "name": "Label Ferme",
    "latitude": "48.87339",
    "longitude": "2.30361",
    "address": "30 Rue Washington, 75008 Paris, France",
    "placeCategoryName": "Restaurant"
  },
  {
    "name": "La Friperie BZH",
    "latitude": "47.66057",
    "longitude": "-2.75447",
    "address": "47°39'38.0398",
    "placeCategoryName": "Restaurant"
  },
  {
    "name": "Mes courses en vrac",
    "latitude": "45.28426",
    "longitude": "5.88411",
    "address": "45 Rue du 8 Mai 1945, 38920 Crolles, France",
    "placeCategoryName": "Restaurant"
  },
  {
    "name": "Intermarché Contact et Drive",
    "latitude": "49.07383",
    "longitude": "5.42752",
    "address": "Chemin rural dit derrière le, Rue du Moulin, 55320 Dieue-sur-Meuse, France",
    "placeCategoryName": "Bar"
  },
  {
    "name": "Spar",
    "latitude": "43.20712",
    "longitude": "6.46558",
    "address": "Chemin des Bugadières, 83310 La Mole, France",
    "placeCategoryName": "Gare"
  },
  {
    "name": "Léa Nature",
    "latitude": "46.16087",
    "longitude": "-1.09761",
    "address": "17180 Perigny, France",
    "placeCategoryName": "Bar"
  },
  {
    "name": "AREC",
    "latitude": "-21.37578",
    "longitude": "55.60633",
    "address": "5 rue des Fuchsias, 97480 Saint joseph",
    "placeCategoryName": "Gare"
  },
  {
    "name": "Day by day",
    "latitude": "43.70729",
    "longitude": "7.26303",
    "address": "3 Rue Vernier, 06000 Nice, Frankreich",
    "placeCategoryName": "Restaurant"
  },
  {
    "name": "Satoriz",
    "latitude": "45.93644",
    "longitude": "6.07791",
    "address": "99 Avenue des Alpes, 74330 Epagny, France",
    "placeCategoryName": "Gare"
  },
  {
    "name": "Green Cantine",
    "latitude": "43.65916",
    "longitude": "-1.42777",
    "address": "30 Avenue de la Gare, 40150 Soorts-Hossegor, France",
    "placeCategoryName": "Bar"
  },
  {
    "name": "De la terre au panier",
    "latitude": "48.76282",
    "longitude": "7.25653",
    "address": "1 Route de Trois-Maisons, 57370 Phalsbourg, France",
    "placeCategoryName": "Restaurant"
  },
  {
    "name": "Au p'tit bocal",
    "latitude": "46.24450",
    "longitude": "6.02710",
    "address": "8 Rue des Hautains, 01630 Saint-Genis-Pouilly, France",
    "placeCategoryName": "Bar"
  },
  {
    "name": "BI1",
    "latitude": "46.05874",
    "longitude": "6.37578",
    "address": "59 Place des Arcades, 74800 Saint-Pierre-en-Faucigny, France",
    "placeCategoryName": "Restaurant"
  },
  {
    "name": "Restaurant Au gré du vent",
    "latitude": "47.53889",
    "longitude": "1.50241",
    "address": "8 rue du vivier, 41250 Tour-en-Sologne, France",
    "placeCategoryName": "Bar"
  },
  {
    "name": "L'Herbe Folle,du bio,du local et du zero dechet!",
    "latitude": "43.60936",
    "longitude": "5.75315",
    "address": "Quartier saint André D3, Route de Saint-Maximin, 83560 Rians, France",
    "placeCategoryName": "Gare"
  },
  {
    "name": "Biocoop Casabio Chambéry",
    "latitude": "45.56788",
    "longitude": "5.93330",
    "address": "26 Quai de la Rize, 73000 Chambéry, France",
    "placeCategoryName": "Gare"
  },
  {
    "name": "Jardins de Saint Sernin",
    "latitude": "43.44066",
    "longitude": "1.67033",
    "address": "14 Chemin de Saint-Sernin, 31290 Villenouvelle, France",
    "placeCategoryName": "Entreprise"
  },
  {
    "name": "BIOCOOP IFS",
    "latitude": "49.14335",
    "longitude": "-0.33977",
    "address": "6-8 Rue Edouard Branly, 14123 Ifs, France",
    "placeCategoryName": "Bar"
  },
  {
    "name": "Maison du vrac",
    "latitude": "50.36783",
    "longitude": "3.08421",
    "address": "5 Place Charles de Gaulle, 59500 Douai, France",
    "placeCategoryName": "Gare"
  },
  {
    "name": "Le Bec Salé",
    "latitude": "48.85827",
    "longitude": "2.38181",
    "address": "119 Rue de la Roquette, 1 Rue Pétion, 75011 Paris, France",
    "placeCategoryName": "Restaurant"
  },
  {
    "name": "43°33'08.3N 6°58'43.0",
    "latitude": "43.55231",
    "longitude": "6.97862",
    "address": "7 Impasse Joseph Flory, 06150 Cannes, France",
    "placeCategoryName": "Restaurant"
  },
  {
    "name": "La Baraque à Vrac",
    "latitude": "50.34140",
    "longitude": "4.28329",
    "address": "Rue t'Serstevens 70, 6530 Thuin, Belgique",
    "placeCategoryName": "Restaurant"
  },
  {
    "name": "Naturéo Vert-Saint-Denis",
    "latitude": "48.56555",
    "longitude": "2.62789",
    "address": "Route Nationale 6, Avenue du Bois Vert, 77240 Vert-Saint-Denis, France",
    "placeCategoryName": "Entreprise"
  },
  {
    "name": "Biocoop La Ramée",
    "latitude": "43.57620",
    "longitude": "1.34868",
    "address": "110 Avenue du Marquisat, 31170 Tournefeuille, France",
    "placeCategoryName": "Bar"
  },
  {
    "name": "Cartouches d'encre Royal Ink",
    "latitude": "48.91378",
    "longitude": "2.34449",
    "address": "1 Avenue Michelet, 93400 Saint-Ouen, France",
    "placeCategoryName": "Gare"
  },
  {
    "name": "Biocoop Mag'Bio",
    "latitude": "46.20300",
    "longitude": "5.22257",
    "address": "43 Avenue Alsace Lorraine, 01000 Bourg-en-Bresse, France",
    "placeCategoryName": "Restaurant"
  },
  {
    "name": "Le Cent dix-sept Cave, bar à vins, restaurant, épicerie fine",
    "latitude": "48.85817",
    "longitude": "2.38157",
    "address": "117 Rue de la Roquette, 75011 Paris, France",
    "placeCategoryName": "Gare"
  },
  {
    "name": "Garage Flory",
    "latitude": "43.55188",
    "longitude": "6.97902",
    "address": "11 Rue Joseph Flory, 06150 Cannes, France",
    "placeCategoryName": "Bar"
  },
  {
    "name": "48°50'03.4",
    "latitude": "48.83427",
    "longitude": "2.32891",
    "address": "28 Rue Daguerre, 75014 Paris, France",
    "placeCategoryName": "Entreprise"
  },
  {
    "name": "La Source",
    "latitude": "45.91148",
    "longitude": "6.13567",
    "address": "49 Avenue Gambetta, 74000 Annecy, France",
    "placeCategoryName": "Entreprise"
  },
  {
    "name": "Vesti Boutique",
    "latitude": "43.39964",
    "longitude": "1.71597",
    "address": "31290 Villefranche-de-Lauragais, France",
    "placeCategoryName": "Bar"
  },
  {
    "name": "Ferme Auberge d'Ambrune et Polalye ",
    "latitude": "45.48017",
    "longitude": "6.27943",
    "address": "Le grey, 73220 Saint-Alban-d'Hurtières, France",
    "placeCategoryName": "Gare"
  },
  {
    "name": "Éthique Verte / Villefranche-de-Lauragais",
    "latitude": "43.39890",
    "longitude": "1.70829",
    "address": "2 Chemin de la Camave, 31290 Villefranche-de-Lauragais, France",
    "placeCategoryName": "Gare"
  },
  {
    "name": "Restaurant Galerie l´Atelier ",
    "latitude": "48.85230",
    "longitude": "2.42379",
    "address": "60BIS Rue Robespierre, 93100 Montreuil, France",
    "placeCategoryName": "Gare"
  },
  {
    "name": "Benne relais vêtements ",
    "latitude": "48.56769",
    "longitude": "7.76807",
    "address": "68 Rue Saint-Aloise, 67100 Strasbourg, France",
    "placeCategoryName": "Bar"
  },
  {
    "name": "Efficycle",
    "latitude": "43.54928",
    "longitude": "1.44085",
    "address": "47 chemin de Rivalsupervic - Bât. D, 31400 Toulouse",
    "placeCategoryName": "Entreprise"
  },
  {
    "name": "EBS Le Relais Bretagne- Ding Fring",
    "latitude": "48.63517",
    "longitude": "-1.99133",
    "address": "Rue Michel de la Bardelière, 35400 Saint-Malo, France",
    "placeCategoryName": "Gare"
  },
  {
    "name": "Boîte à lire",
    "latitude": "48.99766",
    "longitude": "2.09786",
    "address": "8bis Rue Auguste Romagne, 78700 Conflans-Sainte-Honorine, France",
    "placeCategoryName": "Gare"
  },
  {
    "name": "Boucherie Chez Laurent",
    "latitude": "43.69316",
    "longitude": "2.42517",
    "address": "43°41'35.4N 2°25'30.6\"E\" ; 6 Place du Maquis, 81330 Vabre, France",
    "placeCategoryName": "Restaurant"
  },
  {
    "name": "Chez Christine",
    "latitude": "43.69323",
    "longitude": "2.42599",
    "address": "Place de la Mairie, 81330 Vabre, France",
    "placeCategoryName": "Bar"
  },
  {
    "name": "Ferme des Cathelins ",
    "latitude": "45.54061",
    "longitude": "6.28035",
    "address": "Unnamed Road, 73220 Montgilbert, France",
    "placeCategoryName": "Bar"
  },
  {
    "name": "Emmaüs ",
    "latitude": "45.39620",
    "longitude": "2.03747",
    "address": "ZI la Chaulaudre, 19300 Égletons, France",
    "placeCategoryName": "Restaurant"
  },
  {
    "name": "Magasin Bio Avicenne",
    "latitude": "43.89553",
    "longitude": "4.81998",
    "address": "2150 Route d'Avignon, 13160 Châteaurenard, France",
    "placeCategoryName": "Entreprise"
  },
  {
    "name": "Comptoir du bio",
    "latitude": "43.48200",
    "longitude": "-0.74747",
    "address": "ZI Soarns Soleil, 64300 Orthez, France",
    "placeCategoryName": "Bar"
  },
  {
    "name": "Boîte à livres ",
    "latitude": "48.56617",
    "longitude": "7.76954",
    "address": "80 Rue de la Ziegelau, 67100 Strasbourg, France",
    "placeCategoryName": "Entreprise"
  },
  {
    "name": "Charcuterie Chez Laurent",
    "latitude": "43.69316",
    "longitude": "2.42517",
    "address": "6 Place du Maquis, 81330 Vabre, France",
    "placeCategoryName": "Gare"
  },
  {
    "name": "Marché de producteurs ",
    "latitude": "43.65251",
    "longitude": "3.55297",
    "address": "18 Boulevard de l'Esplanade, 34150 Gignac, France",
    "placeCategoryName": "Entreprise"
  },
  {
    "name": "Marcel et fils",
    "latitude": "43.19017",
    "longitude": "5.59996",
    "address": "43°11'24.6214",
    "placeCategoryName": "Entreprise"
  },
  {
    "name": "Comptoir Du Bon",
    "latitude": "48.84975",
    "longitude": "2.38514",
    "address": "1 Rue de Reuilly, 75012 Paris, France",
    "placeCategoryName": "Entreprise"
  },
  {
    "name": "MécaniCycle",
    "latitude": "43.59904",
    "longitude": "1.41858",
    "address": "4 Rue des Braves, 31300 Toulouse, France",
    "placeCategoryName": "Restaurant"
  },
  {
    "name": "Orcemont",
    "latitude": "48.59252",
    "longitude": "1.81110",
    "address": "78125 Orcemont, France",
    "placeCategoryName": "Restaurant"
  },
  {
    "name": "Boîte à livres ",
    "latitude": "48.57322",
    "longitude": "7.76029",
    "address": "17 Av. du Rhin, 67100 Strasbourg, France",
    "placeCategoryName": "Restaurant"
  },
  {
    "name": "Escale Locale",
    "latitude": "43.65129",
    "longitude": "3.54420",
    "address": "Zone Cosmo - 302 Place de l'étoile - avenue Pierre Mendès France, 34150 Gignac, France",
    "placeCategoryName": "Bar"
  },
  {
    "name": "Au bocal - épicerie vrac",
    "latitude": "49.83306",
    "longitude": "3.90481",
    "address": "33 Rue du Général Leclerc, 02140 Vervins, France",
    "placeCategoryName": "Entreprise"
  },
  {
    "name": "L'Échoppe Paysanne Magasin de producteurs",
    "latitude": "44.73560",
    "longitude": "4.59811",
    "address": "Rue Élie Reynier, 07000 Privas, France",
    "placeCategoryName": "Bar"
  },
  {
    "name": "Pittz - falafel pita salades noodles",
    "latitude": "43.52734",
    "longitude": "5.44599",
    "address": "3 Rue de la Couronne, 13100 Aix-en-Provence, France",
    "placeCategoryName": "Bar"
  },
  {
    "name": "Paniers légumes bio 29",
    "latitude": "48.33774",
    "longitude": "-4.42737",
    "address": "625 Route de Kerziou, 29470 Plougastel-Daoulas, France",
    "placeCategoryName": "Gare"
  },
  {
    "name": "Boulangerie Pâtisserie Rémy BATT",
    "latitude": "48.56884",
    "longitude": "7.76279",
    "address": "5 Rue de Rathsamhausen, 67100 Strasbourg, France",
    "placeCategoryName": "Entreprise"
  },
  {
    "name": "Médiathèque Blaise-Cendrars",
    "latitude": "48.99830",
    "longitude": "2.09893",
    "address": "5 Rue Auguste Romagne, 78700 Conflans-Sainte-Honorine, France",
    "placeCategoryName": "Restaurant"
  },
  {
    "name": "Le Grand Chêne Bio",
    "latitude": "46.33989",
    "longitude": "2.58455",
    "address": "59 Avenue Jules Guesde parking Intermarché, 03100 Montluçon, France",
    "placeCategoryName": "Gare"
  },
  {
    "name": "La Vie Claire",
    "latitude": "48.98882",
    "longitude": "1.71212",
    "address": "42 Rue de Lorraine, 78200 Mantes-la-Jolie, France",
    "placeCategoryName": "Gare"
  },
  {
    "name": "Euskal vrac - Epicerie Bio",
    "latitude": "43.34413",
    "longitude": "-1.52846",
    "address": "Allée Charles Cami, 64310 Saint-Pée-sur-Nivelle, Frantzia",
    "placeCategoryName": "Gare"
  },
  {
    "name": "La Vie Claire",
    "latitude": "48.88216",
    "longitude": "2.43322",
    "address": "1 Rue de la Résistance, 93230 Romainville, France",
    "placeCategoryName": "Gare"
  },
  {
    "name": "Borne à piles",
    "latitude": "47.32755",
    "longitude": "-2.42633",
    "address": "7 Place du Marché au Bois, 44350 Guérande, France",
    "placeCategoryName": "Entreprise"
  },
  {
    "name": "Chambe ",
    "latitude": "45.83428",
    "longitude": "4.65180",
    "address": "191 Route de Bel air, 69210 Fleurieux-sur-l'Arbresle, France",
    "placeCategoryName": "Entreprise"
  },
  {
    "name": "La Nouvelle Cantine",
    "latitude": "48.87024",
    "longitude": "2.34941",
    "address": "25 Rue Notre Dame de Bonne Nouvelle, 75010 Paris, France",
    "placeCategoryName": "Gare"
  },
  {
    "name": "Mairie de Sucé-sur-Erdre",
    "latitude": "47.34031",
    "longitude": "-1.52630",
    "address": "25 Rue de la Mairie, 44240 Sucé-sur-Erdre, France",
    "placeCategoryName": "Bar"
  },
  {
    "name": "Entre Deux Verres",
    "latitude": "48.56867",
    "longitude": "7.76262",
    "address": "9 Rue de Rathsamhausen, 67100 Strasbourg, France",
    "placeCategoryName": "Restaurant"
  },
  {
    "name": "Biocoop Bio Lune",
    "latitude": "48.35027",
    "longitude": "-1.18466",
    "address": "32 Boulevard de Groslay, 35300 Fougères, France",
    "placeCategoryName": "Gare"
  },
  {
    "name": "GAILLARD SARL TELE SON PHILIPS",
    "latitude": "47.08866",
    "longitude": "5.48687",
    "address": "18 Avenue Jacques Duhamel, 39100 Dole, France",
    "placeCategoryName": "Restaurant"
  },
  {
    "name": "Biocoop chave",
    "latitude": "43.29588",
    "longitude": "5.39624",
    "address": "103 Rue du Camas, 13005 Marseille, France",
    "placeCategoryName": "Restaurant"
  },
  {
    "name": "Odobio",
    "latitude": "43.23600",
    "longitude": "2.36695",
    "address": "Pont Rouge E, 11000 Carcassonne, France",
    "placeCategoryName": "Entreprise"
  },
  {
    "name": "Végéstal",
    "latitude": "48.11424",
    "longitude": "-1.67887",
    "address": "12 Rue de la Visitation, 35000 Rennes, France",
    "placeCategoryName": "Bar"
  },
  {
    "name": "L' épicerie de Lulu",
    "latitude": "48.56591",
    "longitude": "7.76199",
    "address": "17 Rue de Sélestat, 67100 Strasbourg, France",
    "placeCategoryName": "Bar"
  },
  {
    "name": "GAEC Le Boule d'Or",
    "latitude": "45.87775",
    "longitude": "4.82717",
    "address": "126 Route du Pontet, 69250 Curis-au-Mont-d'Or, France",
    "placeCategoryName": "Bar"
  },
  {
    "name": "Naturellement Vrac",
    "latitude": "47.47911",
    "longitude": "6.84208",
    "address": "13 Rue de Seloncourt, 25400 Audincourt, France",
    "placeCategoryName": "Bar"
  },
  {
    "name": "Alimentation Biologique",
    "latitude": "43.78198",
    "longitude": "4.08143",
    "address": "Zone d'aménagement concerté, Rue de l'Arnède, 30250 Sommières, France",
    "placeCategoryName": "Restaurant"
  },
  {
    "name": "Gaec Leclere",
    "latitude": "48.02447",
    "longitude": "3.83542",
    "address": "4 Rue des Sablons, 89570 Soumaintrain, France",
    "placeCategoryName": "Restaurant"
  },
  {
    "name": "Le Marche Aux Saveurs",
    "latitude": "47.35314",
    "longitude": "6.36079",
    "address": "10 Grande Rue, 25110 Baume-les-Dames, France",
    "placeCategoryName": "Entreprise"
  },
  {
    "name": "L’écho des Bocaux",
    "latitude": "47.25864",
    "longitude": "-0.07625",
    "address": "27 Rue Dacier, 49400 Saumur, France",
    "placeCategoryName": "Bar"
  },
  {
    "name": "Droguerie Sainte-Anne",
    "latitude": "48.56438",
    "longitude": "7.76081",
    "address": "115 Route du Polygone, 67100 Strasbourg, France",
    "placeCategoryName": "Gare"
  },
  {
    "name": "AMAP de l'Artolie",
    "latitude": "44.69357",
    "longitude": "-0.37481",
    "address": "Mairie, 33550 Paillet",
    "placeCategoryName": "Restaurant"
  },
  {
    "name": "Coopérative La Louve",
    "latitude": "48.89433",
    "longitude": "2.35308",
    "address": "116 Rue des Poissonniers, 75018 Paris, France",
    "placeCategoryName": "Entreprise"
  },
  {
    "name": "Satoriz Mulhouse",
    "latitude": "47.79918",
    "longitude": "7.31148",
    "address": "13 Rue de Soultz, 68270 Wittenheim, France",
    "placeCategoryName": "Gare"
  },
  {
    "name": "Auchan SUPERMARCHE TASSIN LA DEMI LUNE",
    "latitude": "45.75786",
    "longitude": "4.78083",
    "address": "Avenue Général Brosset, 69160 Tassin-la-Demi-Lune, France",
    "placeCategoryName": "Gare"
  },
  {
    "name": "Le Douhet",
    "latitude": "45.81835",
    "longitude": "-0.56868",
    "address": "17100 Le Douhet, France",
    "placeCategoryName": "Entreprise"
  },
  {
    "name": "Tilt Vintage",
    "latitude": "50.63901",
    "longitude": "3.06486",
    "address": "33 Rue de la Clef, 59000 Lille, France",
    "placeCategoryName": "Gare"
  },
  {
    "name": "Café Villageois, Association Au Maquis",
    "latitude": "43.74687",
    "longitude": "5.30794",
    "address": "Rue de la Gare, 84360 Lauris, France",
    "placeCategoryName": "Gare"
  },
  {
    "name": "La Vie Claire",
    "latitude": "48.86303",
    "longitude": "2.35363",
    "address": "16 Rue du Grenier-Saint-Lazare, 75003 Paris, France",
    "placeCategoryName": "Bar"
  },
  {
    "name": "Station Vélhop",
    "latitude": "48.56589",
    "longitude": "7.75924",
    "address": "91-95 Route du Polygone, 67100 Strasbourg, France",
    "placeCategoryName": "Bar"
  },
  {
    "name": "Thomas Fabian",
    "latitude": "44.93090",
    "longitude": "-0.43130",
    "address": "37 Chemin des Caderots Château d'Esther, 33450 Saint loubes",
    "placeCategoryName": "Gare"
  },
  {
    "name": "Vignobles Despagne Rapin",
    "latitude": "44.93348",
    "longitude": "-0.15363",
    "address": "Château Maison Blanche, 33570 Montagne",
    "placeCategoryName": "Restaurant"
  },
  {
    "name": "Giffaumont-Champaubert",
    "latitude": "48.55509",
    "longitude": "4.75294",
    "address": "51290 Giffaumont-Champaubert, France",
    "placeCategoryName": "Restaurant"
  },
  {
    "name": "Composteur collectif",
    "latitude": "43.50465",
    "longitude": "5.73367",
    "address": "5 Grand Place, 83910 Pourrières, France",
    "placeCategoryName": "Bar"
  },
  {
    "name": "Boulangerie bio ",
    "latitude": "48.80382",
    "longitude": "2.42785",
    "address": "41 Avenue du Général de Gaulle, 94700 Maisons-Alfort, France",
    "placeCategoryName": "Gare"
  },
  {
    "name": "Centre Commercial Rivetoile",
    "latitude": "48.57372",
    "longitude": "7.75692",
    "address": "3 Pl. Dauphine, 67100 Strasbourg, France",
    "placeCategoryName": "Bar"
  },
  {
    "name": "Aux Potagers de Beauregard",
    "latitude": "45.80190",
    "longitude": "-0.57654",
    "address": "45°48'06.8",
    "placeCategoryName": "Entreprise"
  },
  {
    "name": "Élysées Opéra Hôtel",
    "latitude": "48.88145",
    "longitude": "2.32440",
    "address": "17 Rue de Turin, 75008 Paris, France",
    "placeCategoryName": "Bar"
  },
  {
    "name": "Tonton &Tonton",
    "latitude": "48.74467",
    "longitude": "2.26710",
    "address": "35 Boulevard du Maréchal Foch, 91370 Verrières-le-Buisson, France",
    "placeCategoryName": "Gare"
  },
  {
    "name": "Le Panier Du Verdon",
    "latitude": "43.77987",
    "longitude": "6.34038",
    "address": "Rue Principale, 04120 La Palud-sur-Verdon, France",
    "placeCategoryName": "Restaurant"
  },
  {
    "name": "Boulangerie Pains, Beurre et Chocolat®",
    "latitude": "47.22941",
    "longitude": "-1.55432",
    "address": "10 Boulevard Amiral Courbet, 44000 Nantes, France",
    "placeCategoryName": "Bar"
  },
  {
    "name": "Naturéo La Chapelle-d’Armentières",
    "latitude": "50.65843",
    "longitude": "2.89395",
    "address": "1 bis rue Ambroise Paré, Parc D'Activités De La Houssoye, 59930 La Chapelle-d'Armentières, France",
    "placeCategoryName": "Gare"
  },
  {
    "name": "45°53'54.2",
    "latitude": "45.89840",
    "longitude": "0.91223",
    "address": "38 Route du Derot, 87200 Saint-Junien, France",
    "placeCategoryName": "Bar"
  },
  {
    "name": "L'Eau Vive - Mon magasin Bio",
    "latitude": "49.07813",
    "longitude": "6.10369",
    "address": "1 Rue des Trente Jours, 57685 Augny, France",
    "placeCategoryName": "Bar"
  },
  {
    "name": "Chatperlipopette Café",
    "latitude": "48.57683",
    "longitude": "7.75809",
    "address": "3 Rue de Lausanne, 67000 Strasbourg, France",
    "placeCategoryName": "Entreprise"
  },
  {
    "name": "48°41'26.8N 2°17'35.7",
    "latitude": "48.69077",
    "longitude": "2.29325",
    "address": "6 Rue du Dr Roux, 91160 Longjumeau, France",
    "placeCategoryName": "Gare"
  },
  {
    "name": "Biocoop",
    "latitude": "45.76659",
    "longitude": "4.98655",
    "address": "69330 Meyzieu, France",
    "placeCategoryName": "Bar"
  },
  {
    "name": "Nature de lait La Fouillade",
    "latitude": "43.89272",
    "longitude": "3.28276",
    "address": "Occitanie, France",
    "placeCategoryName": "Restaurant"
  },
  {
    "name": "Bio sam",
    "latitude": "46.72181",
    "longitude": "2.50369",
    "address": "9 Rue du Dr Coulon, 18200 Saint-Amand-Montrond, France",
    "placeCategoryName": "Restaurant"
  },
  {
    "name": "Quetigny",
    "latitude": "47.31249",
    "longitude": "5.11704",
    "address": "21800 Quetigny, France",
    "placeCategoryName": "Restaurant"
  },
  {
    "name": "Estelle Guerin Créations, les savons du Havre.",
    "latitude": "49.48816",
    "longitude": "0.10724",
    "address": "107 Rue de Paris, 76600 Le Havre, France",
    "placeCategoryName": "Gare"
  },
  {
    "name": "Biocoop Pays de vitré",
    "latitude": "48.11153",
    "longitude": "-1.20655",
    "address": "17 Rue des Artisans, 35500 Vitré, France",
    "placeCategoryName": "Restaurant"
  },
  {
    "name": "Chez Pascal, manger autrement",
    "latitude": "46.67134",
    "longitude": "-1.42403",
    "address": "23 Rue du Président de Gaulle, 85000 La Roche-sur-Yon, France",
    "placeCategoryName": "Bar"
  },
  {
    "name": "Bio c' Bon",
    "latitude": "48.83961",
    "longitude": "2.28377",
    "address": "88 Avenue Félix Faure, 75015 Paris, France",
    "placeCategoryName": "Entreprise"
  },
  {
    "name": "Eco depot",
    "latitude": "45.76387",
    "longitude": "4.87276",
    "address": "25 Cours Tolstoï, 69100 Villeurbanne, France",
    "placeCategoryName": "Gare"
  },
  {
    "name": "E.Leclerc Coutras",
    "latitude": "45.04615",
    "longitude": "-0.12232",
    "address": "1 Rue François Mitterrand, 33230 Coutras, France",
    "placeCategoryName": "Restaurant"
  },
  {
    "name": "Home",
    "latitude": "45.68712",
    "longitude": "6.13558",
    "address": "5115F Avenue Denis Therme, 73630 Le Chatelard, France",
    "placeCategoryName": "Gare"
  },
  {
    "name": "Coeurs Antiques (Les)",
    "latitude": "46.10757",
    "longitude": "-1.10007",
    "address": "Sortie Carrefour, 27 Avenue des Fourneaux, 17690 Angoulins, France",
    "placeCategoryName": "Entreprise"
  },
  {
    "name": "44°38'11.5",
    "latitude": "44.63652",
    "longitude": "-0.96114",
    "address": "28a Rue des Fonderies, 33380 Biganos, France",
    "placeCategoryName": "Restaurant"
  },
  {
    "name": "Plumaudan",
    "latitude": "48.35796",
    "longitude": "-2.12467",
    "address": "22350 Plumaudan, France",
    "placeCategoryName": "Gare"
  },
  {
    "name": "Bio Maiel",
    "latitude": "42.84889",
    "longitude": "1.60515",
    "address": "23 Avenue Victor Pilhes, 09400 Tarascon-sur-Ariège, France",
    "placeCategoryName": "Restaurant"
  },
  {
    "name": "Charcuterie Traiteur M.Breton",
    "latitude": "45.76334",
    "longitude": "4.87506",
    "address": "58 Cours Tolstoï, 69100 Villeurbanne, France",
    "placeCategoryName": "Gare"
  },
  {
    "name": "La Ferme Biterroise",
    "latitude": "43.36844",
    "longitude": "3.21013",
    "address": "1096 Route de Corneilhan, 34500 Béziers, France",
    "placeCategoryName": "Restaurant"
  },
  {
    "name": "Brasserie Ambiani (Production)",
    "latitude": "49.89182",
    "longitude": "2.27276",
    "address": "14 Rue Colbert, 80000 Amiens, France",
    "placeCategoryName": "Bar"
  },
  {
    "name": "Pascal Poot",
    "latitude": "43.70494",
    "longitude": "3.31118",
    "address": "La Roque, 34700 Olmet-et-Villecun, France",
    "placeCategoryName": "Restaurant"
  },
  {
    "name": "Les Jardins De Chloé",
    "latitude": "48.89373",
    "longitude": "1.29523",
    "address": "1 Chemin de la Croix Blanche, 27220 Saint-André-de-l'Eure, France",
    "placeCategoryName": "Restaurant"
  },
  {
    "name": "BIOCOOP LE GRENIER - TOKORO",
    "latitude": "44.56778",
    "longitude": "6.10338",
    "address": "26 Boulevard d'Orient, 05000 Gap, France",
    "placeCategoryName": "Bar"
  },
  {
    "name": "Biocoop Nature et Santé",
    "latitude": "43.88755",
    "longitude": "-0.48829",
    "address": "337 Boulevard Jean Larrieu, 40000 Mont-de-Marsan, France",
    "placeCategoryName": "Restaurant"
  },
  {
    "name": "La drôle d’épicerie ",
    "latitude": "45.65095",
    "longitude": "0.15584",
    "address": "45°39'03.4369",
    "placeCategoryName": "Entreprise"
  },
  {
    "name": "Cartridge World Lyon / Villeurbanne",
    "latitude": "45.76422",
    "longitude": "4.87394",
    "address": "78 Cours de la République, 69100 Villeurbanne, France",
    "placeCategoryName": "Bar"
  },
  {
    "name": "La Citronnade",
    "latitude": "47.23386",
    "longitude": "6.02746",
    "address": "19 Rue Ronchaux, 25000 Besançon, France",
    "placeCategoryName": "Restaurant"
  },
  {
    "name": "Les Jardins de la Vallée",
    "latitude": "47.27539",
    "longitude": "-1.36645",
    "address": "38 L'Artuzière, 44450 La Chapelle-Basse-Mer, France",
    "placeCategoryName": "Bar"
  },
  {
    "name": "Ury",
    "latitude": "48.34323",
    "longitude": "2.60233",
    "address": "1 Rue du Petit Puits, 77760 Ury, France",
    "placeCategoryName": "Restaurant"
  },
  {
    "name": "Gaec Dominique villard ",
    "latitude": "45.55755",
    "longitude": "4.53630",
    "address": "141 La Reatière, 42800 Saint-Romain-en-Jarez, France",
    "placeCategoryName": "Gare"
  },
  {
    "name": "Dechetterie Plaisance Du Touch",
    "latitude": "43.59399",
    "longitude": "1.30022",
    "address": "2 Rue du Dr Charcot, 31830 Plaisance-du-Touch, France",
    "placeCategoryName": "Gare"
  },
  {
    "name": "Place du marché le mercredi et dimanche matin",
    "latitude": "47.35308",
    "longitude": "0.66279",
    "address": "Place de la Liberté, 37300 Joué-lès-Tours, France",
    "placeCategoryName": "Restaurant"
  },
  {
    "name": "Gaec Du Pressoir",
    "latitude": "48.28925",
    "longitude": "-1.98794",
    "address": "2 Place de la Poste, 35190 Saint-Pern, France",
    "placeCategoryName": "Gare"
  },
  {
    "name": "SCOP Pain Virgule",
    "latitude": "47.19690",
    "longitude": "-1.32823",
    "address": "104 Zone Artisanale La Bossardière, 44430 Le Landreau, France",
    "placeCategoryName": "Restaurant"
  },
  {
    "name": "48°28'32.8N 2°02'44.8",
    "latitude": "48.47577",
    "longitude": "-2.04579",
    "address": "17 rue du Bois Didais Cap Rance Ouest, Taden, 22100 Dinan, France",
    "placeCategoryName": "Gare"
  },
  {
    "name": "Biocoop Plaisance",
    "latitude": "43.56556",
    "longitude": "1.29749",
    "address": "44 Avenue des Pyrénées, 31830 Plaisance-du-Touch, France",
    "placeCategoryName": "Entreprise"
  },
  {
    "name": "Biocoop le Grenier Tokoro",
    "latitude": "44.56812",
    "longitude": "6.10357",
    "address": "20 Boulevard d'Orient, 05000 Gap, France",
    "placeCategoryName": "Restaurant"
  },
  {
    "name": "Toto Tissus Lyon",
    "latitude": "45.76879",
    "longitude": "4.83718",
    "address": "20 Place Louis Pradel, 69001 Lyon, France",
    "placeCategoryName": "Entreprise"
  },
  {
    "name": "Collectif Chillonda",
    "latitude": "46.52949",
    "longitude": "6.56738",
    "address": "84 avenue du Tir-Fédéral, 01024 Ecublens",
    "placeCategoryName": "Restaurant"
  },
  {
    "name": "La maison des producteurs",
    "latitude": "45.22945",
    "longitude": "-0.83266",
    "address": "33250 Cissac-Médoc, France",
    "placeCategoryName": "Entreprise"
  },
  {
    "name": "Biocoop - Aux quatre saisons ",
    "latitude": "46.64860",
    "longitude": "-0.22441",
    "address": "31 Rue Léonard de Vinci, 79200 Parthenay, France",
    "placeCategoryName": "Restaurant"
  },
  {
    "name": "Éthique Verte / Cugnaux",
    "latitude": "43.54871",
    "longitude": "1.35014",
    "address": "25 Chemin Petit Jean, 31270 Cugnaux, France",
    "placeCategoryName": "Gare"
  },
  {
    "name": "Arom'Aix",
    "latitude": "43.52961",
    "longitude": "5.44538",
    "address": "60 Rue des Cordeliers, 13100 Aix-en-Provence, France",
    "placeCategoryName": "Entreprise"
  },
  {
    "name": "L'épicerie verte (Les Comptoirs de La Bio)",
    "latitude": "43.31582",
    "longitude": "-0.31339",
    "address": "132 Avenue Alfred Nobel, 64000 Pau, France",
    "placeCategoryName": "Gare"
  },
  {
    "name": "Oasis de Baden",
    "latitude": "47.61857",
    "longitude": "-2.88733",
    "address": "47°37'06.8671",
    "placeCategoryName": "Gare"
  },
  {
    "name": "LA MAISON D'AOURIKA",
    "latitude": "43.58429",
    "longitude": "1.45202",
    "address": "9 Avenue Crampel, 31400 Toulouse, France",
    "placeCategoryName": "Entreprise"
  },
  {
    "name": "La Bie O",
    "latitude": "46.85950",
    "longitude": "0.16435",
    "address": "Rue de la Bie, 86420 Verrue",
    "placeCategoryName": "Entreprise"
  },
  {
    "name": "Sequoia Bio & Natural Market Keym",
    "latitude": "50.81059",
    "longitude": "4.40358",
    "address": "Rue des Bégonias 10-16, 1170 Watermael-Boitsfort, Belgique",
    "placeCategoryName": "Restaurant"
  },
  {
    "name": "Biocoop",
    "latitude": "49.44436",
    "longitude": "1.09215",
    "address": "88 Rue Jeanne d'Arc, 76000 Rouen, France",
    "placeCategoryName": "Restaurant"
  },
  {
    "name": "la ferme du bois vert",
    "latitude": "45.33834",
    "longitude": "5.52271",
    "address": "455 Bois Vert, 38140 Charnècles, France",
    "placeCategoryName": "Bar"
  },
  {
    "name": "41°28'17.5",
    "latitude": "41.47153",
    "longitude": "-5.90589",
    "address": "Calle Sta. Olaya, 20-24, 49180 Almaraz de Duero, Zamora, Espagne",
    "placeCategoryName": "Bar"
  },
  {
    "name": "Marché Producteurs direct (Samedi) ",
    "latitude": "43.58593",
    "longitude": "1.44743",
    "address": "18 Grande Rue Saint-Michel, 31400 Toulouse, France",
    "placeCategoryName": "Gare"
  },
  {
    "name": "Recyclune",
    "latitude": "48.58685",
    "longitude": "6.48839",
    "address": "9 Rue du Coq, 54300 Lunéville, France",
    "placeCategoryName": "Entreprise"
  },
  {
    "name": "La Vie Claire",
    "latitude": "49.05355",
    "longitude": "2.05037",
    "address": "Zac des Linandes, 1 Avenue de la Plaine des Sports, 95800 Cergy, France",
    "placeCategoryName": "Bar"
  },
  {
    "name": "44°32'57.8N 3°20'03.5",
    "latitude": "44.54939",
    "longitude": "3.33429",
    "address": "Route de Rieutort, 48100 Montrodat, France",
    "placeCategoryName": "Bar"
  },
  {
    "name": "Biocoop Le Grenier Vert",
    "latitude": "47.63742",
    "longitude": "6.85902",
    "address": "3 Avenue du Maréchal Foch, 90000 Belfort, France",
    "placeCategoryName": "Gare"
  },
  {
    "name": "Atouts Ville Véti-éco",
    "latitude": "50.99739",
    "longitude": "2.12184",
    "address": "Boulevard de l'Europe, 59820 Gravelines, France",
    "placeCategoryName": "Restaurant"
  },
  {
    "name": "Hyper U et drive",
    "latitude": "44.71535",
    "longitude": "4.61554",
    "address": "Clef du Sac, 07210 Alissas, France",
    "placeCategoryName": "Gare"
  },
  {
    "name": "La Fontaine des Champs",
    "latitude": "48.29866",
    "longitude": "4.11699",
    "address": "49 Avenue Général de Gaulle, 10410 Saint-Parres-aux-Tertres, France",
    "placeCategoryName": "Bar"
  },
  {
    "name": "LES PLACES",
    "latitude": "45.22624",
    "longitude": "0.93096",
    "address": "24640 Cubjac, France",
    "placeCategoryName": "Gare"
  },
  {
    "name": "Association Deuxieme Vie ",
    "latitude": "45.45365",
    "longitude": "6.29484",
    "address": "73220 Epierre, France",
    "placeCategoryName": "Gare"
  },
  {
    "name": "La Creperie de Youenn",
    "latitude": "48.49263",
    "longitude": "-2.70852",
    "address": "39 Rue de Rennes, 22360 Langueux, France",
    "placeCategoryName": "Bar"
  },
  {
    "name": "Recyclerie de Rillieux-la-Pape",
    "latitude": "45.82396",
    "longitude": "4.91141",
    "address": "655 Route du Mas Rillier, 69140 Rillieux-la-Pape, France",
    "placeCategoryName": "Gare"
  },
  {
    "name": "SATORIZ",
    "latitude": "48.51839",
    "longitude": "7.70315",
    "address": "Pont du péage, rn 835, 67118 Geispolsheim, France",
    "placeCategoryName": "Gare"
  },
  {
    "name": "L'Oasis",
    "latitude": "46.00850",
    "longitude": "4.71182",
    "address": "526 Route de Chantegrillet, 69400 Gleize, France",
    "placeCategoryName": "Restaurant"
  },
  {
    "name": "Les Amis Du Zeybu",
    "latitude": "45.16077",
    "longitude": "5.74600",
    "address": "23 Allée du Gerbier, 38320 Eybens, France",
    "placeCategoryName": "Restaurant"
  },
  {
    "name": "Anim'Magic",
    "latitude": "45.86007",
    "longitude": "4.83403",
    "address": "1 Rue Pasteur, 69250 Albigny-sur-Saône, France",
    "placeCategoryName": "Entreprise"
  },
  {
    "name": "Marcel & Fils Bio",
    "latitude": "43.44477",
    "longitude": "5.55267",
    "address": "Rond-Point de l'Europe, 13710 Fuveau, France",
    "placeCategoryName": "Restaurant"
  },
  {
    "name": "Pure Planète",
    "latitude": "45.00072",
    "longitude": "-1.19904",
    "address": "8 Avenue du Mal des Logis Garnung, 33680 Lacanau, France",
    "placeCategoryName": "Entreprise"
  },
  {
    "name": "Bio Tissus",
    "latitude": "48.37461",
    "longitude": "-4.60111",
    "address": "22Bis Route de Tremaidic, 29280 Plouzané, France",
    "placeCategoryName": "Gare"
  },
  {
    "name": "Les Chiffonniers de la Joie",
    "latitude": "48.57075",
    "longitude": "-3.81199",
    "address": "74 Route de Callac, 29600 Morlaix, France",
    "placeCategoryName": "Bar"
  },
  {
    "name": "Ma Terre",
    "latitude": "43.52240",
    "longitude": "5.46115",
    "address": "4 Rue Pierre de Coubertin, 13100 Aix-en-Provence, France",
    "placeCategoryName": "Bar"
  },
  {
    "name": "Itsy Bitsy - Cuisine Végétale",
    "latitude": "50.63176",
    "longitude": "3.06298",
    "address": "10 Rue Jeanne Maillotte, 59800 Lille, France",
    "placeCategoryName": "Restaurant"
  },
  {
    "name": "La Vie Claire",
    "latitude": "48.63475",
    "longitude": "-2.01356",
    "address": "53 Rue ville Pépin, 35400 Saint-Malo, France",
    "placeCategoryName": "Entreprise"
  },
  {
    "name": "Carrefour market - Breuillet",
    "latitude": "48.56885",
    "longitude": "2.16281",
    "address": "Z.A. du Buisson Rondeau - Route de Saint-Chéron - D116, 91650 Breuillet, France",
    "placeCategoryName": "Gare"
  },
  {
    "name": "Au Pays Bio",
    "latitude": "46.45001",
    "longitude": "-0.80833",
    "address": "109 Avenue du Président François Mitterrand, 85200 Fontenay-le-Comte, France",
    "placeCategoryName": "Gare"
  },
  {
    "name": "Chepa",
    "latitude": "48.84560",
    "longitude": "2.32864",
    "address": "Boulevard Raspail, Paris, France",
    "placeCategoryName": "Entreprise"
  },
  {
    "name": "Nature Directe",
    "latitude": "44.73664",
    "longitude": "4.59817",
    "address": "3 Avenue du Petit Tournon, 07000 Privas, France",
    "placeCategoryName": "Restaurant"
  },
  {
    "name": "Bric à Brac du FOYER NOTRE-DAME DES SANS-ABRI - Villefranche-sur-Saône",
    "latitude": "45.99431",
    "longitude": "4.72880",
    "address": "433 Rue André Desthieux, 69400 Villefranche-sur-Saône, France",
    "placeCategoryName": "Bar"
  },
  {
    "name": "Magasin pour rien",
    "latitude": "45.16087",
    "longitude": "5.74689",
    "address": "10 Place des Coulmes, 38320 Eybens, France",
    "placeCategoryName": "Gare"
  },
  {
    "name": "La Vie Claire",
    "latitude": "49.23603",
    "longitude": "-0.28972",
    "address": "4 Rue du Commerce, 14970 Bénouville, France",
    "placeCategoryName": "Bar"
  },
  {
    "name": "Bio c' Bon",
    "latitude": "45.74542",
    "longitude": "4.86471",
    "address": "58 Avenue des Frères Lumière, 69008 Lyon, France",
    "placeCategoryName": "Bar"
  },
  {
    "name": "Les Potagers de Marcoussis",
    "latitude": "48.64078",
    "longitude": "2.21605",
    "address": "Chemin du Regard, 91460 Marcoussis, France",
    "placeCategoryName": "Restaurant"
  },
  {
    "name": "Val d’oise",
    "latitude": "48.84992",
    "longitude": "2.63704",
    "address": "Île-de-France, France",
    "placeCategoryName": "Entreprise"
  },
  {
    "name": "Mon Cher Velo - Atelier de réparation participatif",
    "latitude": "47.06396",
    "longitude": "2.40232",
    "address": "8 Rue Eirik Labonne, 18000 Bourges, France",
    "placeCategoryName": "Entreprise"
  },
  {
    "name": "Naturéo Vauréal",
    "latitude": "49.03016",
    "longitude": "2.02239",
    "address": "rond point De La Croix Lieu, Avenue De La Paix, 95490 Vauréal, France",
    "placeCategoryName": "Restaurant"
  },
  {
    "name": "Les Subsistances",
    "latitude": "45.76799",
    "longitude": "4.81743",
    "address": "8 bis Quai Saint-Vincent, 69001 Lyon, France",
    "placeCategoryName": "Restaurant"
  },
  {
    "name": "Cabinet d'Infirmiers Watteaux Dominique Garcia Luc et Lapérouse Angèle",
    "latitude": "43.85900",
    "longitude": "4.43618",
    "address": "28 Rue des Hirondelles, 30320 Marguerittes, France",
    "placeCategoryName": "Bar"
  },
  {
    "name": "Domaine de la Rôtisserie",
    "latitude": "46.75122",
    "longitude": "0.37982",
    "address": "35 Rue de l'Habit d'Or, 86380 Marigny-Brizay, France",
    "placeCategoryName": "Restaurant"
  },
  {
    "name": "Lycee g Pompidou-enilv ",
    "latitude": "44.93610",
    "longitude": "2.44186",
    "address": "21 Rue de Salers, 15000 Aurillac, France",
    "placeCategoryName": "Gare"
  },
  {
    "name": "Marché les samedis matins",
    "latitude": "45.48073",
    "longitude": "4.43299",
    "address": "Place Gambetta, 42350 La Talaudière, France",
    "placeCategoryName": "Bar"
  },
  {
    "name": "EARL Les ¨Plaisirs du Jardin",
    "latitude": "49.02233",
    "longitude": "2.07974",
    "address": "Chemin des Patis, 95000 Cergy, France",
    "placeCategoryName": "Entreprise"
  },
  {
    "name": "NATURALIA",
    "latitude": "48.87935",
    "longitude": "2.38677",
    "address": "70 Rue Botzaris, 75019 Paris, France",
    "placeCategoryName": "Bar"
  },
  {
    "name": "ACISE - collecte de vêtements",
    "latitude": "14.54601",
    "longitude": "-60.96983",
    "address": "14°32'45.6515",
    "placeCategoryName": "Restaurant"
  },
  {
    "name": "Pré d'Ici - Magasin de producteurs",
    "latitude": "46.05208",
    "longitude": "3.93590",
    "address": "Rue Robert Barathon, 42370 Renaison, France",
    "placeCategoryName": "Gare"
  },
  {
    "name": "Biocoop Le Perget",
    "latitude": "43.61282",
    "longitude": "1.30563",
    "address": "2-4 Avenue André-Marie Ampère, 31770 Colomiers, France",
    "placeCategoryName": "Bar"
  },
  {
    "name": "Casino Supermarché",
    "latitude": "49.04937",
    "longitude": "2.00960",
    "address": "7 Cours des Merveilles, 95800 Cergy, France",
    "placeCategoryName": "Restaurant"
  },
  {
    "name": "La Ressource",
    "latitude": "45.17388",
    "longitude": "5.73065",
    "address": "3 Rue Emile Zola, 38000 Grenoble, France",
    "placeCategoryName": "Gare"
  },
  {
    "name": "Sarl Label Vie Wasquehal",
    "latitude": "50.66452",
    "longitude": "3.12368",
    "address": "51 Avenue de Flandre, 59290 Wasquehal, France",
    "placeCategoryName": "Gare"
  },
  {
    "name": "Pascal CAMELOT Producteur Locavore",
    "latitude": "48.87234",
    "longitude": "1.88685",
    "address": "31 Rue du Clos Pigeon, 78650 Beynes, France",
    "placeCategoryName": "Entreprise"
  },
  {
    "name": "Velo & Oxygen",
    "latitude": "48.74821",
    "longitude": "2.26640",
    "address": "36 Rue d'Estienne d'Orves, 91370 Verrières-le-Buisson, France",
    "placeCategoryName": "Entreprise"
  },
  {
    "name": "Brasserie le Diplomate",
    "latitude": "48.87886",
    "longitude": "2.30085",
    "address": "110 Boulevard de Courcelles, 75017 Paris, France",
    "placeCategoryName": "Bar"
  },
  {
    "name": "Point Bio Vésinet",
    "latitude": "48.89070",
    "longitude": "2.13384",
    "address": "1 Rue du Maréchal Foch, 78110 Le Vésinet, France",
    "placeCategoryName": "Bar"
  },
  {
    "name": "Côté Rue, Côté Jardin",
    "latitude": "46.12135",
    "longitude": "4.95669",
    "address": "65 Rue Gambetta, 01400 Châtillon-sur-Chalaronne, France",
    "placeCategoryName": "Restaurant"
  },
  {
    "name": "Le Bar à Pain",
    "latitude": "43.30020",
    "longitude": "5.38640",
    "address": "18 Cours Joseph Thierry, 13001 Marseille, France",
    "placeCategoryName": "Restaurant"
  },
  {
    "name": "marcel&fils BIO",
    "latitude": "43.10789",
    "longitude": "5.85844",
    "address": "Avenue Marcel Paul - Lieu dit Vignelongue, 83500 La Seyne-sur-Mer, France",
    "placeCategoryName": "Restaurant"
  },
  {
    "name": "LES PAPILLES FERMIERES",
    "latitude": "46.02392",
    "longitude": "0.19785",
    "address": "9 Avenue Célestin Sieur, 16700 Ruffec, France",
    "placeCategoryName": "Bar"
  },
  {
    "name": "Ti'récup",
    "latitude": "48.28399",
    "longitude": "-3.55541",
    "address": "Z A de St Antoine 29270 Carhaix-Plouguer, France",
    "placeCategoryName": "Bar"
  },
  {
    "name": "L'Esperluette",
    "latitude": "46.53528",
    "longitude": "3.34813",
    "address": "190 Route de Lyon, 03400 Yzeure, France",
    "placeCategoryName": "Restaurant"
  },
  {
    "name": "Montpellier",
    "latitude": "43.59124",
    "longitude": "3.25836",
    "address": "Languedoc-Roussillon, France",
    "placeCategoryName": "Gare"
  },
  {
    "name": "Boutique Emmaus",
    "latitude": "43.29956",
    "longitude": "5.38588",
    "address": "6 Square Stalingrad, 13001 Marseille, France",
    "placeCategoryName": "Restaurant"
  },
  {
    "name": "Le Fenouil Biocoop République",
    "latitude": "48.00444",
    "longitude": "0.19513",
    "address": "1 b rue Gambetta, 72100 Le Mans, France",
    "placeCategoryName": "Restaurant"
  },
  {
    "name": "Au comptoir Local",
    "latitude": "44.99286",
    "longitude": "-0.44830",
    "address": "7 Rue du Commandant Cousteau, 33240 Saint-André-de-Cubzac, France",
    "placeCategoryName": "Gare"
  },
  {
    "name": "La Bastidonne ",
    "latitude": "43.93517",
    "longitude": "6.06792",
    "address": "Provence-Alpes-Côte d'Azur, France",
    "placeCategoryName": "Entreprise"
  },
  {
    "name": "Mieux habiter avec gie-mpp",
    "latitude": "48.78156",
    "longitude": "5.15912",
    "address": "3, allée des mirabelliers, 55000 Bar le duc",
    "placeCategoryName": "Entreprise"
  },
  {
    "name": "Intermarché Super et Drive",
    "latitude": "48.76728",
    "longitude": "2.11903",
    "address": "Avenue Morane Saulnier, 78530 Buc, France",
    "placeCategoryName": "Entreprise"
  },
  {
    "name": "Charcuterie Chez Laurent",
    "latitude": "43.69316",
    "longitude": "2.42517",
    "address": "6 Place du Maquis, 81330 Vabre, France",
    "placeCategoryName": "Gare"
  },
  {
    "name": "Le Comptoir des Halles",
    "latitude": "48.07207",
    "longitude": "-1.85163",
    "address": "6 bis place des Muletiers, 35310 Mordelles, France",
    "placeCategoryName": "Restaurant"
  },
  {
    "name": "Biocoop Grandeur Nature",
    "latitude": "43.57323",
    "longitude": "1.45260",
    "address": "21 Avenue des Écoles Jules Julien, 31400 Toulouse, France",
    "placeCategoryName": "Bar"
  },
  {
    "name": "Super U et drive",
    "latitude": "46.55829",
    "longitude": "0.31284",
    "address": "91 Avenue du 8 Mai 1945, 86000 Poitiers, France",
    "placeCategoryName": "Gare"
  },
  {
    "name": "Te Ora",
    "latitude": "44.83116",
    "longitude": "-0.66966",
    "address": "Espace Commercial du Chemin Long, 14 Rue Euclide, 33700 Mérignac, France",
    "placeCategoryName": "Restaurant"
  },
  {
    "name": "Bio Sud 66",
    "latitude": "42.50149",
    "longitude": "2.76072",
    "address": "2 Rue du Costabonne, 66400 Céret, France",
    "placeCategoryName": "Restaurant"
  },
  {
    "name": "La Vie Claire",
    "latitude": "45.90598",
    "longitude": "6.11288",
    "address": "16 Rue de la Poterie, 74960 Annecy, France",
    "placeCategoryName": "Entreprise"
  },
  {
    "name": "Dechetterie De Castres",
    "latitude": "43.59129",
    "longitude": "2.20838",
    "address": "Zone Industrielle de Mélou, 81100 Castres, France",
    "placeCategoryName": "Restaurant"
  },
  {
    "name": "day by day , Mon épicerie en vrac",
    "latitude": "48.07938",
    "longitude": "7.36192",
    "address": "41 Rue Vauban, 68000 Colmar, France",
    "placeCategoryName": "Entreprise"
  },
  {
    "name": "Biocoop L'Épicurien Bio Cavaillon",
    "latitude": "43.82518",
    "longitude": "5.06012",
    "address": "64 Allée Théodore Monod, 84300 Cavaillon, France",
    "placeCategoryName": "Restaurant"
  },
  {
    "name": "LA FERME DES ALOUETTES",
    "latitude": "48.78621",
    "longitude": "1.73422",
    "address": "81 Route de la Troche, 78490 Grosrouvre, France",
    "placeCategoryName": "Entreprise"
  },
  {
    "name": "L'Epicerie MP Sa",
    "latitude": "46.29881",
    "longitude": "7.05459",
    "address": "Avenue Centrale, 1884 Villars-sur-Ollon, Suisse",
    "placeCategoryName": "Entreprise"
  },
  {
    "name": "Ressourcerie Histoires sans fin",
    "latitude": "43.58450",
    "longitude": "5.47616",
    "address": "6 Allée des Platanes, 13770 Venelles, France",
    "placeCategoryName": "Gare"
  },
  {
    "name": "47°14'05.9",
    "latitude": "47.23498",
    "longitude": "-1.52061",
    "address": "123 Route de Sainte-Luce, 44300 Nantes, France",
    "placeCategoryName": "Gare"
  },
  {
    "name": "Canal Bio",
    "latitude": "48.88546",
    "longitude": "2.37539",
    "address": "46bis Quai de la Loire, 75019 Paris, France",
    "placeCategoryName": "Bar"
  },
  {
    "name": "La Cave À Manger",
    "latitude": "46.67023",
    "longitude": "-1.42326",
    "address": "9 Place du Marché, 85000 La Roche-sur-Yon, France",
    "placeCategoryName": "Gare"
  },
  {
    "name": "Au Pistou",
    "latitude": "44.55206",
    "longitude": "4.76682",
    "address": "65 Route de Dieulefit, 26200 Montélimar, France",
    "placeCategoryName": "Bar"
  },
  {
    "name": "Ferme de la Haye les Mureaux ",
    "latitude": "48.78509",
    "longitude": "1.82566",
    "address": "Yvelines, France",
    "placeCategoryName": "Entreprise"
  },
  {
    "name": "Épicerie La Fourmi",
    "latitude": "45.76870",
    "longitude": "4.83170",
    "address": "8 Rue Terme, 69001 Lyon, France",
    "placeCategoryName": "Gare"
  },
  {
    "name": "Mandelieu",
    "latitude": "43.54832",
    "longitude": "6.94495",
    "placeCategoryName": "Entreprise"
  },
  {
    "name": "La vie claire - marché bio",
    "latitude": "47.22434",
    "longitude": "-1.55012",
    "address": "14 Rue Pitre Chevalier, 44000 Nantes, France",
    "placeCategoryName": "Bar"
  },
  {
    "name": "marcel&fils BIO",
    "latitude": "43.58548",
    "longitude": "5.47501",
    "address": "1 Allée des Platanes, 13770 Venelles, France",
    "placeCategoryName": "Bar"
  },
  {
    "name": "Gaec Daix",
    "latitude": "45.02080",
    "longitude": "2.99986",
    "address": "Le Bourg, 15100 Tanavelle, France",
    "placeCategoryName": "Bar"
  },
  {
    "name": "La Cueillette du Plessis",
    "latitude": "48.85269",
    "longitude": "2.74790",
    "address": "Rue de la Cueillette, 77600 Chanteloup-en-Brie, France",
    "placeCategoryName": "Entreprise"
  },
  {
    "name": "Croq'Nature",
    "latitude": "48.07044",
    "longitude": "-0.76968",
    "address": "11 Quai Sadi Carnot, 53000 Laval, France",
    "placeCategoryName": "Bar"
  },
  {
    "name": "Le Repère",
    "latitude": "44.36042",
    "longitude": "5.13748",
    "address": "Rue des Réformés, 26110 Nyons, France",
    "placeCategoryName": "Entreprise"
  },
  {
    "name": "Halles de Merville",
    "latitude": "47.74589",
    "longitude": "-3.36817",
    "address": "Avenue Anatole France, 56100 Lorient, France",
    "placeCategoryName": "Gare"
  },
  {
    "name": "Marie Nature",
    "latitude": "47.21615",
    "longitude": "-1.55932",
    "address": "2 Rue Paré, 44000 Nantes, France",
    "placeCategoryName": "Entreprise"
  },
  {
    "name": "Maboul",
    "latitude": "44.98485",
    "longitude": "-0.45199",
    "address": "60 Chemin de Labry, 33240 Saint-André-de-Cubzac, France",
    "placeCategoryName": "Bar"
  },
  {
    "name": "Marché Frais de Stéphane Biot",
    "latitude": "48.60977",
    "longitude": "7.69872",
    "address": "51 Rue de Strasbourg, 67206 Mittelhausbergen, France",
    "placeCategoryName": "Gare"
  },
  {
    "name": "So frip",
    "latitude": "48.06238",
    "longitude": "-0.75429",
    "address": "18 Boulevard Murat, 53000 Laval, France",
    "placeCategoryName": "Entreprise"
  },
  {
    "name": "Super U et drive",
    "latitude": "45.09516",
    "longitude": "-0.38566",
    "address": "Avenue de Paris Le Bourg, 33620 Cavignac, France",
    "placeCategoryName": "Bar"
  },
  {
    "name": "Market",
    "latitude": "49.32188",
    "longitude": "-0.45351",
    "address": "Route Anglaise, 14470 Courseulles-sur-Mer, France",
    "placeCategoryName": "Restaurant"
  },
  {
    "name": "Les saveurs du carretou",
    "latitude": "43.90410",
    "longitude": "1.40982",
    "address": "85 Route de Planqués, 82370 Orgueil, France",
    "placeCategoryName": "Gare"
  },
  {
    "name": "Ferme Castel",
    "latitude": "50.73189",
    "longitude": "3.19194",
    "address": "rue lieutenant colonel Duchatelet, 59200 Tourcoing, France",
    "placeCategoryName": "Entreprise"
  },
  {
    "name": "Mrs",
    "latitude": "43.29648",
    "longitude": "5.36978",
    "address": "Marseille, France",
    "placeCategoryName": "Bar"
  },
  {
    "name": "Les Comptoirs de la Bio",
    "latitude": "43.40890",
    "longitude": "5.52639",
    "address": "43°24'34.4N 5°31'33.9\"E\" ; 112,  Grande Rue, 13119 Saint-Savournin, France",
    "placeCategoryName": "Bar"
  },
  {
    "name": "Boulangerie Authentique",
    "latitude": "48.61362",
    "longitude": "7.69629",
    "address": "26 Rue de Strasbourg, 67206 Mittelhausbergen, France",
    "placeCategoryName": "Gare"
  },
  {
    "name": "Nature Directe",
    "latitude": "44.73658",
    "longitude": "4.59816",
    "address": "3 Avenue du Petit Tournon, 07000 Privas, France",
    "placeCategoryName": "Gare"
  },
  {
    "name": "La Ferme des Saveurs Magasin de producteurs",
    "latitude": "45.30778",
    "longitude": "5.62169",
    "address": "160 Chemin de Boreas, 38340 Voreppe, France",
    "placeCategoryName": "Gare"
  },
  {
    "name": "43°35'19.5N 2°12'32.5",
    "latitude": "43.58875",
    "longitude": "2.20904",
    "address": "Zone Industrielle de Mélou, 81100 Castres, France",
    "placeCategoryName": "Bar"
  },
  {
    "name": "Drive Fermier Albi",
    "latitude": "43.92048",
    "longitude": "2.11404",
    "address": "Rue des Portes d'Albi, 81000 Albi, France",
    "placeCategoryName": "Gare"
  },
  {
    "name": "Le Moulin à Café",
    "latitude": "46.58277",
    "longitude": "0.34472",
    "address": "191 Grand'Rue, 86000 Poitiers, France",
    "placeCategoryName": "Bar"
  },
  {
    "name": "Day by day Dunkerque",
    "latitude": "51.03614",
    "longitude": "2.37711",
    "address": "3 Rue des Chaudronniers, 59140 Dunkerque, France",
    "placeCategoryName": "Bar"
  },
  {
    "name": "Bionantes Talensac",
    "latitude": "47.22123",
    "longitude": "-1.55797",
    "address": "Rue Talensac, 44000 Nantes, France",
    "placeCategoryName": "Gare"
  },
  {
    "name": "La Vie Saine Bordeaux",
    "latitude": "44.83726",
    "longitude": "-0.57263",
    "address": "8 Rue Ravez, 33000 Bordeaux, France",
    "placeCategoryName": "Gare"
  },
  {
    "name": "Coopérative Hop'la",
    "latitude": "48.61159",
    "longitude": "7.67060",
    "address": "196 Route de Saverne, 67205 Oberhausbergen, France",
    "placeCategoryName": "Restaurant"
  },
  {
    "name": "Sodi",
    "latitude": "44.85524",
    "longitude": "0.59165",
    "address": "2 Avenue de la Gare, 24520 Mouleydier, France",
    "placeCategoryName": "Entreprise"
  },
  {
    "name": "L'ECHO CAFE",
    "latitude": "44.53807",
    "longitude": "4.74685",
    "address": "116-268 Route de Marseille, 26200 Montélimar, France",
    "placeCategoryName": "Bar"
  },
  {
    "name": "Artisans du Monde",
    "latitude": "46.19630",
    "longitude": "6.23511",
    "address": "32 Avenue de la Gare, 74100 Annemasse, France",
    "placeCategoryName": "Entreprise"
  },
  {
    "name": "Place du Marché",
    "latitude": "43.65999",
    "longitude": "3.93200",
    "address": "1 Rue du Pic Saint-Loup, 34920 Le Crès, France",
    "placeCategoryName": "Gare"
  },
  {
    "name": "Biocoop L'Epicea",
    "latitude": "45.63590",
    "longitude": "0.20939",
    "address": "278 Avenue du Général de Gaulle, 16800 Soyaux, France",
    "placeCategoryName": "Restaurant"
  },
  {
    "name": "Bio c bon vrac",
    "latitude": "43.58513",
    "longitude": "1.44732",
    "address": "11 bis Grande Rue Saint-Michel, 31400 Toulouse, France",
    "placeCategoryName": "Restaurant"
  },
  {
    "name": "La bottega della pizza",
    "latitude": "48.86020",
    "longitude": "2.43876",
    "address": "34 Boulevard Rouget de Lisle, 93100 Montreuil, France",
    "placeCategoryName": "Gare"
  },
  {
    "name": "NATURALIA",
    "latitude": "48.87307",
    "longitude": "2.48360",
    "address": "26 Rue du Général Gallieni, 93110 Rosny-sous-Bois, France",
    "placeCategoryName": "Restaurant"
  },
  {
    "name": "Secours Populaire Français",
    "latitude": "44.35092",
    "longitude": "2.04050",
    "address": "46 Rue Alibert, 12200 Villefranche-de-Rouergue, France",
    "placeCategoryName": "Gare"
  },
  {
    "name": "Biocoop Planète Bio barentin",
    "latitude": "49.53267",
    "longitude": "0.96690",
    "address": "ZONE DE LA CARBONNIERE, 75 Boulevard de Westphalie, 76360 Barentin, France",
    "placeCategoryName": "Entreprise"
  },
  {
    "name": "Domaine du Claud",
    "latitude": "43.57833",
    "longitude": "3.82656",
    "address": "12 Avenue Georges Clemenceau, 34430 Saint-Jean-de-Védas, France",
    "placeCategoryName": "Gare"
  },
  {
    "name": "ARENAM",
    "latitude": "49.76836",
    "longitude": "4.71072",
    "address": "12A Avenue de l'Industrie, 08000 Charleville-Mézières, France",
    "placeCategoryName": "Restaurant"
  },
  {
    "name": "Miss Terre et co",
    "latitude": "45.69593",
    "longitude": "5.91471",
    "address": "25 Boulevard des Anglais, 73100 Aix-les-Bains, France",
    "placeCategoryName": "Entreprise"
  },
  {
    "name": "La ferme de Grand Lieu",
    "latitude": "47.05932",
    "longitude": "-1.71081",
    "address": "2 Le Bas Fief, 44310 Saint-Lumine-de-Coutais, France",
    "placeCategoryName": "Gare"
  },
  {
    "name": "Boutique Aroma-Zone Paris Odéon",
    "latitude": "48.85168",
    "longitude": "2.33980",
    "address": "25 Rue de l'École de Médecine, 75006 Paris, France",
    "placeCategoryName": "Gare"
  },
  {
    "name": "L'Échoppe Paysanne Magasin de producteurs",
    "latitude": "44.73560",
    "longitude": "4.59811",
    "address": "Rue Élie Reynier, 07000 Privas, France",
    "placeCategoryName": "Entreprise"
  },
  {
    "name": "Les Jolies Choses",
    "latitude": "43.26822",
    "longitude": "5.38882",
    "address": "66 Avenue de Mazargues, 13008 Marseille, France",
    "placeCategoryName": "Entreprise"
  },
  {
    "name": "Biocoop Grandeur Nature",
    "latitude": "43.56573",
    "longitude": "1.51948",
    "address": "Allée des Champs Pinsons, 31650 Saint-Orens-de-Gameville, France",
    "placeCategoryName": "Bar"
  },
  {
    "name": "Intermarché Hyper et Drive",
    "latitude": "46.59857",
    "longitude": "0.32142",
    "address": "Rue de la Demi Lune, 86000 Poitiers, France",
    "placeCategoryName": "Gare"
  },
  {
    "name": "Magasin Huit à 8",
    "latitude": "48.54209",
    "longitude": "6.13959",
    "address": "2 Rue du Gén Leclerc, 54160 Pulligny, France",
    "placeCategoryName": "Bar"
  },
  {
    "name": "Uni'Vers Bio",
    "latitude": "48.19478",
    "longitude": "6.44711",
    "address": "1 Rue des Tisserands, 88190 Golbey, France",
    "placeCategoryName": "Bar"
  },
  {
    "name": "L'éléfàn",
    "latitude": "45.18040",
    "longitude": "5.72498",
    "address": "13 Chemin de la Capuche, 38000 Grenoble, France",
    "placeCategoryName": "Restaurant"
  },
  {
    "name": "Les Hameaux Bio Biocoop Pornichet",
    "latitude": "47.25748",
    "longitude": "-2.31672",
    "address": "4 Avenue du Courtil Riel, 44380 Pornichet, France",
    "placeCategoryName": "Bar"
  },
  {
    "name": "Square Saint-Médard",
    "latitude": "48.83952",
    "longitude": "2.35001",
    "address": "75005 Paris, France",
    "placeCategoryName": "Bar"
  },
  {
    "name": "La Source",
    "latitude": "43.64086",
    "longitude": "4.79776",
    "address": "ZA du Salat, 7 Rue Isaac Newton, 13310 Saint-Martin-de-Crau, France",
    "placeCategoryName": "Bar"
  },
  {
    "name": "L'Eau Vive Mon Magasin Bio Labège",
    "latitude": "43.54701",
    "longitude": "1.51122",
    "address": "380 La Tolosane, 31670 Labège, France",
    "placeCategoryName": "Entreprise"
  },
  {
    "name": "La Vie Claire",
    "latitude": "44.13886",
    "longitude": "5.96666",
    "address": "Impasse de la Fenière Espace Champarlau, 04200 Peipin, France",
    "placeCategoryName": "Gare"
  },
  {
    "name": "La Pagaille Recyclerie",
    "latitude": "48.81118",
    "longitude": "2.39818",
    "address": "15 Rue Ernest Renan, 94200 Ivry-sur-Seine, France",
    "placeCategoryName": "Restaurant"
  },
  {
    "name": "Yaka demander",
    "latitude": "49.04395",
    "longitude": "3.41296",
    "address": "32 Avenue de Château-Thierry, 02400 Brasles, France",
    "placeCategoryName": "Entreprise"
  },
  {
    "name": "Les fermiers du coin ",
    "latitude": "48.08898",
    "longitude": "-1.70557",
    "address": "1 Avenue Roger Dodin, 35136 Saint-Jacques-de-la-Lande, France",
    "placeCategoryName": "Restaurant"
  }
]
